학교종류명,학교명,도로명주소,Latitude,Longitude,2023
초등학교,서울숭신초등학교,서울특별시 성동구 마장로 161,37.5676959,127.0278038,19.1
초등학교,한양초등학교,서울특별시 성동구 살곶이길 208,37.5613868,127.0436916,19.1
초등학교,세종초등학교,서울특별시 광진구 군자로 114,37.5507345,127.0741314,21.6
초등학교,성동초등학교,서울특별시 광진구 자양로4길 63,37.53293670000001,127.0895315,21.6
초등학교,서울행현초등학교,서울특별시 성동구 행당로 95,37.5577402,127.0293614,19.1
초등학교,서울행당초등학교,서울특별시 성동구 고산자로8길 6,37.5566893,127.0346474,19.1
초등학교,서울중마초등학교,서울특별시 광진구 동일로72길 43,37.5658818,127.0798086,21.6
초등학교,서울중광초등학교,서울특별시 광진구 긴고랑로13길 59,37.56514960000001,127.0825086,21.6
초등학교,서울장안초등학교,서울특별시 광진구 군자로 74,37.5499417,127.071995,21.6
초등학교,서울자양초등학교,서울특별시 광진구 아차산로44길 26,37.5368302,127.0795451,21.6
초등학교,서울응봉초등학교,서울특별시 성동구 독서당로62길 28,37.5509166,127.03405,19.1
초등학교,서울용마초등학교,서울특별시 광진구 천호대로113길 10,37.5579653,127.084207,21.6
초등학교,서울용답초등학교,서울특별시 성동구 용답25길 1,37.560829,127.053555,19.1
초등학교,서울용곡초등학교,서울특별시 광진구 용마산로22길 82,37.5668387,127.0885593,21.6
초등학교,서울옥정초등학교,서울특별시 성동구 한림말길 43,37.5416733,127.0155528,19.1
초등학교,서울옥수초등학교,서울특별시 성동구 금호로1길 25,37.5459206,127.0221894,19.1
초등학교,서울양진초등학교,서울특별시 광진구 워커힐로 32,37.5445232,127.0982459,21.6
초등학교,서울양남초등학교,서울특별시 광진구 뚝섬로64길 71,37.5307405,127.0897285,21.6
초등학교,서울신자초등학교,서울특별시 광진구 뚝섬로46길 64,37.5300737,127.0755326,21.6
초등학교,서울신양초등학교,서울특별시 광진구 능동로 42,37.5345981,127.0691877,21.6
초등학교,서울송원초등학교,서울특별시 성동구 동일로43길 9,37.5540584,127.0694378,19.1
초등학교,서울성자초등학교,서울특별시 광진구 뚝섬로56길 7,37.5311675,127.0830972,21.6
초등학교,서울성수초등학교,서울특별시 성동구 아차산로17길 21,37.5442513,127.0634269,19.1
초등학교,서울사근초등학교,서울특별시 성동구 사근동11길 16,37.5628186,127.0477686,19.1
초등학교,서울무학초등학교,서울특별시 성동구 무학봉15길 21,37.562957,127.0295536,19.1
초등학교,서울마장초등학교,서울특별시 성동구 마장로35나길 31,37.5683436,127.0419269,19.1
초등학교,서울동호초등학교,서울특별시 성동구 매봉길 49-35,37.5468617,127.0103129,19.1
초등학교,서울동자초등학교,서울특별시 광진구 뚝섬로 561,37.5347052,127.0721208,21.6
초등학교,서울동의초등학교,서울특별시 광진구 영화사로 111,37.5533804,127.0988236,21.6
초등학교,서울동명초등학교,서울특별시 성동구 마장로29길 29,37.5687519,127.0357193,19.1
초등학교,서울금호초등학교,서울특별시 성동구 무수막길 69,37.5525447,127.0200964,19.1
초등학교,서울금옥초등학교,서울특별시 성동구 독서당로 251,37.5461966,127.0178855,19.1
초등학교,서울금북초등학교,서울특별시 성동구 행당로1길 13,37.5571241,127.0234702,19.1
초등학교,서울구의초등학교,서울특별시 광진구 광나루로30길 49,37.5427858,127.0803624,21.6
초등학교,서울구남초등학교,서울특별시 광진구 구의강변로 69,37.536883,127.0923038,21.6
초등학교,서울광진초등학교,서울특별시 광진구 자양로40길 41,37.5476007,127.0912271,21.6
초등학교,서울광장초등학교,서울특별시 광진구 광장로1길 27,37.54822559999999,127.1013147,21.6
초등학교,서울광남초등학교,서울특별시 광진구 아차산로70길 35,37.5408123,127.1009358,21.6
초등학교,서울경일초등학교,서울특별시 성동구 뚝섬로 332,37.5404342,127.0470515,19.1
초등학교,서울경수초등학교,서울특별시 성동구 뚝섬로13길 22,37.5397009,127.0584129,19.1
초등학교,서울경동초등학교,서울특별시 성동구 성수일로 34,37.5430599,127.0504404,19.1
초등학교,경복초등학교,서울특별시 광진구 천호대로130길 58,37.5503951,127.087338,21.6
초등학교,중앙대학교사범대학부속초등학교,서울특별시 동작구 서달로 135,37.50544,126.9599814,21.1
초등학교,서울흑석초등학교,서울특별시 동작구 현충로 87,37.5086077,126.9651514,21.1
초등학교,서울행림초등학교,서울특별시 동작구 솔밭로 47,37.4824861,126.964472,21.1
초등학교,서울청룡초등학교,서울특별시 관악구 관악로5길 61,37.4759585,126.9512194,19.5
초등학교,서울조원초등학교,서울특별시 관악구 조원로 67,37.4841267,126.9095716,19.5
초등학교,서울인헌초등학교,서울특별시 관악구 낙성대로 23,37.4764062,126.9601368,19.5
초등학교,서울은천초등학교,서울특별시 관악구 은천로 69,37.4868215,126.9428898,19.5
초등학교,서울은로초등학교,서울특별시 동작구 서달로 115,37.50336,126.9600697,21.1
초등학교,서울원신초등학교,서울특별시 관악구 광신길 177,37.4669668,126.9273667,19.5
초등학교,서울원당초등학교,서울특별시 관악구 봉천로 505,37.4810793,126.9562093,19.5
초등학교,서울영화초등학교,서울특별시 동작구 등용로8길 3,37.5095162,126.9330178,21.1
초등학교,서울영본초등학교,서울특별시 동작구 만양로12가길 69,37.5105459,126.9487309,21.1
초등학교,서울신우초등학교,서울특별시 관악구 호암로 498,37.4628309,126.9324964,19.5
초등학교,서울신성초등학교,서울특별시 관악구 신림로 114,37.4715828,126.936649,19.5
초등학교,서울신상도초등학교,서울특별시 동작구 장승배기로 14,37.499913,126.943221,21.1
초등학교,서울신봉초등학교,서울특별시 관악구 양녕로6나길 1,37.4854451,126.9491973,19.5
초등학교,서울신림초등학교,서울특별시 관악구 문성로28길 31,37.4772244,126.9275135,19.5
초등학교,서울신남성초등학교,서울특별시 동작구 사당로 146,37.4885464,126.9652863,21.1
초등학교,서울신길초등학교,서울특별시 동작구 알마타길 16,37.5104253,126.9266963,21.1
초등학교,서울상현초등학교,서울특별시 동작구 상도로58길 21,37.49493950000001,126.9526964,21.1
초등학교,서울상도초등학교,서울특별시 동작구 성대로21길 62,37.499852,126.9373202,21.1
초등학교,서울삼일초등학교,서울특별시 동작구 사당로23나길 27,37.48846400000001,126.975284,21.1
초등학교,서울삼성초등학교,서울특별시 관악구 대학7길 52,37.46807099999999,126.9410719,19.5
초등학교,서울사당초등학교,서울특별시 관악구 남현4길 51,37.4741386,126.9743404,19.5
초등학교,서울봉현초등학교,서울특별시 관악구 성현로 117,37.4909513,126.9551678,19.5
초등학교,서울봉천초등학교,서울특별시 관악구 행운1라길 17,37.48313640000001,126.9578612,19.5
초등학교,서울본동초등학교,서울특별시 동작구 노량진로26길 16-40,37.5105672,126.9540399,21.1
초등학교,서울보라매초등학교,서울특별시 동작구 여의대방로16길 30,37.49572070000001,126.9161111,21.1
초등학교,서울미성초등학교,서울특별시 관악구 문성로 79,37.4780229,126.9112511,19.5
초등학교,서울문창초등학교,서울특별시 동작구 신대방2길 14,37.4889443,126.9138717,21.1
초등학교,서울동작초등학교,서울특별시 동작구 동작대로29길 214,37.4940445,126.9770106,21.1
초등학교,서울대림초등학교,서울특별시 동작구 대방동1길 22,37.5006252,126.9256931,21.1
초등학교,서울당곡초등학교,서울특별시 관악구 보라매로2길 23,37.4902061,126.9300073,19.5
초등학교,서울노량진초등학교,서울특별시 동작구 장승배기로 160,37.5119189,126.9404152,21.1
초등학교,서울남성초등학교,서울특별시 동작구 사당로23길 57-14,37.4845922,126.9757041,21.1
초등학교,서울남사초등학교,서울특별시 동작구 동작대로13길 22,37.4823432,126.9788623,21.1
초등학교,서울남부초등학교,서울특별시 관악구 남부순환로163길 14,37.4848898,126.9221483,19.5
초등학교,서울난향초등학교,서울특별시 관악구 난향길 9,37.4621543,126.91801,19.5
초등학교,서울난우초등학교,서울특별시 관악구 난우길 40,37.4766125,126.9177438,19.5
초등학교,서울난곡초등학교,서울특별시 관악구 난곡로35길 102,37.4692461,126.9170719,19.5
초등학교,서울구암초등학교,서울특별시 관악구 구암길 1,37.4892698,126.9469886,19.5
초등학교,서울관악초등학교,서울 관악구 청룡4길 49,37.4806341,126.9432666,19.5
초등학교,서울강남초등학교,서울특별시 동작구 강남초등길 15,37.5061028,126.9527814,21.1
초등학교,서울위례솔초등학교,서울특별시 송파구 위례북로2길 12,37.4870071,127.1505885,22.2
초등학교,서울강빛초등학교,서울특별시 강동구 아리수로93다길 1,37.5744814,127.171308,22.0
초등학교,서울고현초등학교,서울특별시 강동구 상일로11길 110,37.5540265,127.1658663,22.0
초등학교,서울해누리초등학교,서울특별시 송파구 송파대로37길 95,37.4982444,127.1021918,22.2
초등학교,서울강솔초등학교,서울특별시 강동구 고덕로97길 80,37.5620986,127.180572,22.0
초등학교,서울위례별초등학교,서울특별시 송파구 위례광장로 243,37.47882,127.1450435,22.2
초등학교,서울한산초등학교,서울특별시 강동구 풍성로 261,37.5280975,127.1414832,22.0
초등학교,서울풍성초등학교,서울특별시 송파구 강동대로2길 13,37.5260639,127.1132662,22.2
초등학교,서울풍납초등학교,서울특별시 송파구 풍성로 43,37.5347879,127.1179092,22.2
초등학교,서울평화초등학교,서울특별시 송파구 송파대로26길 22,37.49138850000001,127.1223688,22.2
초등학교,서울토성초등학교,서울특별시 송파구 풍성로20길 44,37.53180589999999,127.1151781,22.2
초등학교,서울천호초등학교,서울특별시 강동구 구천면로 310-11,37.5472435,127.1363564,22.0
초등학교,서울천일초등학교,서울특별시 강동구 구천면로 266,37.5440326,127.1330243,22.0
초등학교,서울천동초등학교,서울특별시 강동구 성안로 200,37.5405873,127.1376054,22.0
초등학교,서울중대초등학교,서울특별시 송파구 송파대로36길 8,37.5000495,127.1137683,22.2
초등학교,서울잠현초등학교,서울특별시 송파구 올림픽로37길 109,37.5224117,127.1047662,22.2
초등학교,서울잠전초등학교,서울특별시 송파구 올림픽로12길 51,37.5067798,127.0842121,22.2
초등학교,서울잠일초등학교,서울특별시 송파구 올림픽로 95,37.514693,127.0815433,22.2
초등학교,서울잠실초등학교,서울특별시 송파구 올림픽로35길 20,37.5201075,127.1112729,22.2
초등학교,서울잠신초등학교,서울특별시 송파구 잠실로 32,37.5139836,127.0882126,22.2
초등학교,서울잠동초등학교,서울특별시 송파구 올림픽로35길 122,37.517964,127.1000485,22.2
초등학교,서울위례초등학교,서울특별시 강동구 명일로 23,37.5220776,127.1393156,22.0
초등학교,서울오륜초등학교,서울특별시 송파구 양재대로 1196,37.5120578,127.1345437,22.2
초등학교,서울오금초등학교,서울특별시 송파구 위례성대로22길 11,37.5091515,127.1318058,22.2
초등학교,서울영풍초등학교,서울특별시 송파구 오금로57길 15,37.4959957,127.1429659,22.2
초등학교,서울아주초등학교,서울특별시 송파구 올림픽로4길 59,37.505199,127.0759074,22.2
초등학교,서울신천초등학교,서울특별시 송파구 올림픽로 215,37.5136269,127.0951912,22.2
초등학교,서울신암초등학교,서울특별시 강동구 올림픽로93길 33-16,37.54927259999999,127.1243068,22.0
초등학교,서울신명초등학교,서울특별시 강동구 명일로24길 33,37.5413036,127.1495185,22.0
초등학교,서울신가초등학교,서울특별시 송파구 송이로 75,37.499982,127.1200903,22.2
초등학교,서울송파초등학교,서울특별시 송파구 백제고분로 400,37.5070489,127.1107543,22.2
초등학교,서울송전초등학교,서울특별시 송파구 석촌호수로 159,37.5084498,127.094814,22.2
초등학교,서울송례초등학교,서울특별시 송파구 위례순환로 439,37.4777338,127.1385039,22.2
초등학교,서울세륜초등학교,서울특별시 송파구 양재대로 1264,37.518577,127.1337805,22.2
초등학교,서울성일초등학교,서울특별시 강동구 성내로15길 33,37.5291419,127.128352,22.0
초등학교,서울성내초등학교,서울특별시 강동구 성내로3길 19,37.531228,127.1223365,22.0
초등학교,서울선사초등학교,서울특별시 강동구 올림픽로 837,37.5560275,127.1287608,22.0
초등학교,서울선린초등학교,서울특별시 강동구 진황도로61길 29,37.5292675,127.1457383,22.0
초등학교,서울석촌초등학교,서울특별시 송파구 가락로11길 26,37.5025525,127.1047464,22.2
초등학교,서울상일초등학교,서울특별시 강동구 천호대로 1477,37.54710470000001,127.1722921,22.0
초등학교,서울삼전초등학교,서울특별시 송파구 백제고분로28길 19,37.5014438,127.0926088,22.2
초등학교,서울버들초등학교,서울특별시 송파구 석촌호수로 81,37.5102634,127.0890916,22.2
초등학교,서울방이초등학교,서울특별시 송파구 위례성대로10길 4,37.5133996,127.1209514,22.2
초등학교,서울방산초등학교,서울특별시 송파구 오금로27길 42,37.5093853,127.1209624,22.2
초등학교,서울문현초등학교,서울특별시 송파구 충민로 137,37.4826368,127.1302714,22.2
초등학교,서울문정초등학교,서울특별시 송파구 문정로5길 20,37.4889157,127.1286451,22.2
초등학교,서울문덕초등학교,서울특별시 송파구 송이로34길 60,37.4849928,127.1275979,22.2
초등학교,서울묘곡초등학교,서울특별시 강동구 동남로79길 46,37.5582374,127.1532582,22.0
초등학교,서울명일초등학교,서울특별시 강동구 고덕로38길 8,37.5539222,127.1419775,22.0
초등학교,서울명원초등학교,서울특별시 강동구 명일로 364,37.5509277,127.1504473,22.0
초등학교,서울명덕초등학교,서울특별시 강동구 양재대로156길 11,37.5569095,127.1460394,22.0
초등학교,서울마천초등학교,서울특별시 송파구 마천로61다길 24,37.4953435,127.1523231,22.2
초등학교,서울둔촌초등학교,서울특별시 강동구 양재대로88길 27,37.5258587,127.1372794,22.0
초등학교,서울대명초등학교,서울특별시 강동구 상암로 271,37.5471622,127.1532982,22.0
초등학교,서울남천초등학교,서울특별시 송파구 성내천로 207,37.5011138,127.150812,22.2
초등학교,서울길동초등학교,서울특별시 강동구 양재대로116길 69,37.5382633,127.1444728,22.0
초등학교,서울고일초등학교,서울특별시 강동구 구천면로93길 20,37.5520548,127.1688703,22.0
초등학교,서울고명초등학교,서울특별시 강동구 고덕로46길 53,37.5526417,127.1468748,22.0
초등학교,서울고덕초등학교,서울특별시 강동구 아리수로82길 42,37.560771,127.1665894,22.0
초등학교,서울거원초등학교,서울특별시 송파구 양산로2길 26,37.4878199,127.1450246,22.2
초등학교,서울거여초등학교,서울특별시 송파구 마천로25길 18,37.5048584,127.1407471,22.2
초등학교,서울개롱초등학교,서울특별시 송파구 문정로 211,37.4971691,127.1397585,22.2
초등학교,서울강일초등학교,서울특별시 강동구 아리수로98길 24,37.5649867,127.1772787,22.0
초등학교,서울강명초등학교,서울특별시 강동구 상일로 74-1,37.5545566,127.1733882,22.0
초등학교,서울강동초등학교,서울특별시 강동구 상암로14길 77,37.5459232,127.129938,22.0
초등학교,서울강덕초등학교,서울특별시 강동구 동남로82길 94-54,37.5588618,127.1608488,22.0
초등학교,서울가주초등학교,서울특별시 송파구 오금로40길 37,37.496625,127.1290503,22.2
초등학교,서울가원초등학교,서울특별시 송파구 중대로4길 8,37.4891195,127.1114055,22.2
초등학교,서울가락초등학교,서울특별시 송파구 송파대로37길 45,37.4999216,127.1077796,22.2
초등학교,서울가동초등학교,서울특별시 송파구 중대로20길 47,37.497139,127.1303675,22.2
초등학교,우촌초등학교,서울특별시 성북구 성북로4길 52-1,37.5956492,127.0117126,21.6
초등학교,영훈초등학교,서울특별시 강북구 도봉로13가길 19,37.6137546,127.0277791,20.7
초등학교,성신초등학교,서울특별시 성북구 북악산로 918,37.5941845,127.0229716,21.6
초등학교,매원초등학교,서울특별시 성북구 북악산로 870,37.5979487,127.0198639,21.6
초등학교,대광초등학교,서울특별시 성북구 안암로 5,37.5791594,127.0235866,21.6
초등학교,광운초등학교,서울특별시 성북구 한천로 694,37.61425670000001,127.0589569,21.6
초등학교,서울화계초등학교,서울특별시 강북구 솔매로50가길 25,37.6238714,127.0292178,20.7
초등학교,서울청덕초등학교,서울특별시 성북구 정릉로9라길 11,37.611907,127.000529,21.6
초등학교,서울정수초등학교,서울특별시 성북구 정릉로24길 58,37.6040953,127.007961,21.6
초등학교,서울정릉초등학교,서울특별시 성북구 솔샘로25가길 8,37.6193281,127.0054527,21.6
초등학교,서울정덕초등학교,서울특별시 성북구 아리랑로 63,37.59768280000001,127.0136083,21.6
초등학교,서울장위초등학교,서울특별시 성북구 장월로8가길 41,37.6121311,127.0498869,21.6
초등학교,서울장월초등학교,서울특별시 성북구 한천로101길 66,37.6220048,127.0470668,21.6
초등학교,서울장곡초등학교,서울특별시 성북구 장월로23길 16,37.6166901,127.0481912,21.6
초등학교,서울일신초등학교,서울특별시 성북구 월곡로 74,37.5989164,127.0401417,21.6
초등학교,서울인수초등학교,서울특별시 강북구 인수봉로 269,37.6428269,127.0099832,20.7
초등학교,서울유현초등학교,서울특별시 강북구 인수봉로37길 24,37.6319398,127.011674,20.7
초등학교,서울월곡초등학교,서울특별시 성북구 장월로3길 42,37.60992390000001,127.046587,21.6
초등학교,서울우이초등학교,서울특별시 강북구 삼양로99길 36,37.6384762,127.01493,20.7
초등학교,서울오현초등학교,서울특별시 강북구 월계로 221,37.6232155,127.0468038,20.7
초등학교,서울안암초등학교,서울특별시 성북구 고려대로7가길 39,37.5871946,127.0226323,21.6
초등학교,서울숭인초등학교,서울특별시 성북구 오패산로16길 37,37.6088767,127.0374712,21.6
초등학교,서울숭례초등학교,서울특별시 성북구 종암로5길 14,37.5948961,127.034946,21.6
초등학교,서울숭덕초등학교,서울특별시 성북구 정릉로 279,37.6039236,127.0133439,21.6
초등학교,서울숭곡초등학교,서울특별시 성북구 종암로40길 30,37.6084791,127.0324504,21.6
초등학교,서울수유초등학교,서울특별시 강북구 삼양로74길 39,37.6305928,127.0202757,20.7
초등학교,서울수송초등학교,서울특별시 강북구 한천로124길 14,37.6370942,127.0329991,20.7
초등학교,서울송천초등학교,서울특별시 강북구 삼양로20길 29,37.6156559,127.0235919,20.7
초등학교,서울송중초등학교,서울특별시 강북구 오현로 9,37.6169246,127.0315704,20.7
초등학교,서울성북초등학교,서울특별시 성북구 성북로 102-10,37.5936544,126.9982793,21.6
초등학교,서울석관초등학교,서울특별시 성북구 돌곶이로22길 21,37.6108977,127.0591729,21.6
초등학교,서울석계초등학교,서울특별시 성북구 한천로58길 273,37.608605,127.0697639,21.6
초등학교,서울삼양초등학교,서울특별시 강북구 삼양로49길 17,37.6235075,127.016635,20.7
초등학교,서울삼선초등학교,서울특별시 성북구 보문로29길 106,37.5863104,127.0125541,21.6
초등학교,서울삼각산초등학교,서울특별시 강북구 삼양로19길 141,37.6160105,127.0146386,20.7
초등학교,서울번동초등학교,서울특별시 강북구 오현로 204,37.6289878,127.0407102,20.7
초등학교,서울미양초등학교,서울특별시 강북구 솔샘로 195,37.6209522,127.0137139,20.7
초등학교,서울미아초등학교,서울특별시 성북구 삼양로 77,37.6104613,127.0217263,21.6
초등학교,서울동신초등학교,서울특별시 성북구 보문사길 50,37.5826184,127.0169521,21.6
초등학교,서울돈암초등학교,서울특별시 성북구 동소문로13길 38,37.5933531,127.0129865,21.6
초등학교,서울길음초등학교,서울특별시 성북구 길음로 142,37.6139045,127.0174177,21.6
초등학교,서울길원초등학교,서울특별시 성북구 길음로15길 55,37.6092757,127.0166521,21.6
초등학교,서울개운초등학교,서울특별시 성북구 정릉로48길 52,37.6018084,127.0277709,21.6
초등학교,서울개현초등학교,서울특별시 강남구 선릉로 15,37.5006784,127.0489432,23.8
초등학교,서울자곡초등학교,서울특별시 강남구 자곡로 150,37.47210099999999,127.0996175,23.8
초등학교,서울율현초등학교,서울특별시 강남구 밤고개로21길 15,37.47451520000001,127.108285,23.8
초등학교,서울우솔초등학교,서울특별시 서초구 양재대로2길 74,37.4570244,127.0193154,24.5
초등학교,서울세명초등학교,서울특별시 강남구 자곡로 55,37.4686014,127.0909942,23.8
초등학교,서울우면초등학교,서울특별시 서초구 태봉로,37.4656378,127.0258724,24.5
초등학교,서울학동초등학교,서울특별시 강남구 선릉로115길 42,37.5120662,127.0398114,23.8
초등학교,서울포이초등학교,서울특별시 강남구 개포로22길 87,37.4755995,127.0523238,23.8
초등학교,서울청담초등학교,서울특별시 강남구 압구정로71길 9,37.5279801,127.0450373,23.8
초등학교,서울잠원초등학교,서울특별시 서초구 신반포로16길 15-25,37.5015562,126.9980944,24.5
초등학교,서울일원초등학교,서울특별시 강남구 영동대로4길 20,37.4895034,127.0763998,23.8
초등학교,서울이수초등학교,서울특별시 서초구 방배천로4길 23,37.4781376,126.9846188,24.5
초등학교,서울원촌초등학교,서울특별시 서초구 사평대로45길 26,37.5059612,127.0127995,24.5
초등학교,서울원명초등학교,서울특별시 서초구 고무래로 90-6,37.5005095,127.0167948,24.5
초등학교,서울우암초등학교,서울특별시 서초구 바우뫼로7길 38,37.4719495,127.0245003,24.5
초등학교,서울왕북초등학교,서울특별시 강남구 광평로31길 74,37.4861747,127.0864664,23.8
초등학교,서울영희초등학교,서울특별시 강남구 일원로 21,37.4919412,127.0812766,23.8
초등학교,서울역삼초등학교,서울특별시 강남구 강남대로66길 21,37.4928011,127.0327832,23.8
초등학교,서울언주초등학교,서울특별시 강남구 남부순환로363길 19,37.4865471,127.0371722,23.8
초등학교,서울언북초등학교,서울특별시 강남구 삼성로135길 42,37.5199691,127.0456266,23.8
초등학교,서울언남초등학교,서울특별시 서초구 헌릉로8길 42,37.4539193,127.0615139,24.5
초등학교,서울양전초등학교,서울특별시 강남구 개포로 513,37.4904255,127.07003,23.8
초등학교,서울양재초등학교,서울특별시 서초구 바우뫼로18길 14,37.4738537,127.0319617,24.5
초등학교,서울압구정초등학교,서울특별시 강남구 압구정로39길 29,37.5313997,127.0309069,23.8
초등학교,서울신중초등학교,서울특별시 서초구 남부순환로317길 15,37.479992,127.0097706,24.5
초등학교,서울신동초등학교,서울특별시 서초구 나루터로 15,37.5169419,127.01187,24.5
초등학교,서울신구초등학교,서울특별시 강남구 압구정로18길 28,37.5231178,127.0241858,23.8
초등학교,서울수서초등학교,서울특별시 강남구 광평로51길 46,37.4908423,127.101657,23.8
초등학교,서울서초초등학교,서울특별시 서초구 서운로 178,37.4992427,127.0241149,24.5
초등학교,서울서일초등학교,서울특별시 서초구 남부순환로339길 38,37.484788,127.0226053,24.5
초등학교,서울서이초등학교,서울특별시 서초구 서운로 35,37.4912107,127.0259518,24.5
초등학교,서울서원초등학교,서울특별시 서초구 고무래로 63,37.5026378,127.0151948,24.5
초등학교,서울서래초등학교,서울특별시 서초구 방배로 260,37.4961027,126.9893974,24.5
초등학교,서울삼릉초등학교,서울특별시 강남구 봉은사로63길 22,37.512835,127.0470984,23.8
초등학교,서울봉은초등학교,서울특별시 강남구 학동로 610,37.52041,127.0608528,23.8
초등학교,서울방현초등학교,서울특별시 서초구 효령로4길 58,37.4763368,126.9902243,24.5
초등학교,서울방일초등학교,서울특별시 서초구 방배로18길 52,37.4853305,126.9980435,24.5
초등학교,서울방배초등학교,서울특별시 서초구 방배중앙로13길 26,37.4871609,126.9874672,24.5
초등학교,서울반포초등학교,서울특별시 서초구 신반포로 55-4,37.5028212,126.9910879,24.5
초등학교,서울반원초등학교,서울특별시 서초구 잠원로3길 28,37.5099506,127.0040474,24.5
초등학교,서울매헌초등학교,서울특별시 서초구 언남길 8,37.47113520000001,127.0420729,24.5
초등학교,서울도성초등학교,서울특별시 강남구 역삼로 313,37.5009074,127.0491834,23.8
초등학교,서울도곡초등학교,서울특별시 강남구 선릉로64길 33,37.4990608,127.0546706,23.8
초등학교,서울대현초등학교,서울특별시 강남구 역삼로98길 16,37.5035728,127.0638597,23.8
초등학교,서울대치초등학교,서울특별시 강남구 양재천로 363,37.4909106,127.0622675,23.8
초등학교,서울대청초등학교,서울특별시 강남구 양재대로55길 28,37.4928354,127.0879259,23.8
초등학교,서울대진초등학교,서울특별시 강남구 개포로109길 74,37.4966858,127.0780444,23.8
초등학교,서울대왕초등학교,서울특별시 강남구 헌릉로618길 8,37.4644284,127.1055381,23.8
초등학교,서울대모초등학교,서울특별시 강남구 광평로20길 27,37.4811396,127.0862343,23.8
초등학교,서울대도초등학교,서울특별시 강남구 선릉로 209,37.4926976,127.0535224,23.8
초등학교,서울대곡초등학교,서울특별시 강남구 남부순환로 3022,37.4944062,127.0651765,23.8
초등학교,서울논현초등학교,서울특별시 강남구 강남대로120길 33,37.5082167,127.0263166,23.8
초등학교,서울구룡초등학교,서울특별시 강남구 개포로 263,37.4807968,127.0519292,23.8
초등학교,서울개포초등학교,서울특별시 강남구 삼성로4길 30,37.4876225,127.0685038,23.8
초등학교,서울개일초등학교,서울특별시 강남구 개포로 401,37.4859589,127.0580194,23.8
초등학교,서울개원초등학교,서울특별시 강남구 선릉로 29,37.4813655,127.0590553,23.8
초등학교,계성초등학교,서울특별시 서초구 신반포로19길 23,37.504628,126.9967453,24.5
초등학교,서울교육대학교부설초등학교,서울특별시 서초구 서초중앙로 96,37.4901737,127.0162346,24.5
초등학교,유석초등학교,서울특별시 강서구 화곡로69길 9,37.5596453,126.853311,20.9
초등학교,서울신은초등학교,서울특별시 양천구 신정이펜2로 30,37.5137225,126.8322559,22.2
초등학교,서울화일초등학교,서울특별시 강서구 까치산로10길 70,37.5406155,126.8475317,20.9
초등학교,서울화곡초등학교,서울특별시 강서구 초록마을로 28,37.5432203,126.8460779,20.9
초등학교,서울탑산초등학교,서울특별시 강서구 허준로 109,37.566767,126.8523733,20.9
초등학교,서울치현초등학교,서울특별시 강서구 방화대로47길 43,37.5756214,126.8145749,20.9
초등학교,서울지향초등학교,서울특별시 양천구 신정로11길 74,37.5131338,126.8374245,22.2
초등학교,서울정목초등학교,서울특별시 양천구 목동중앙로3길 30-10,37.5373164,126.8704925,22.2
초등학교,서울정곡초등학교,서울특별시 강서구 방화대로50길 22,37.5766459,126.8189585,20.9
초등학교,서울장수초등학교,서울특별시 양천구 신정로13가길 30,37.512921,126.8452303,22.2
초등학교,서울은정초등학교,서울특별시 양천구 목동남로 85,37.5112421,126.8673805,22.2
초등학교,서울월촌초등학교,서울특별시 양천구 목동중앙로 132,37.5400198,126.8761842,22.2
초등학교,서울월정초등학교,서울특별시 강서구 월정로 176,37.5344275,126.8362849,20.9
초등학교,서울우장초등학교,서울특별시 강서구 화곡로 263,37.5489346,126.8462014,20.9
초등학교,서울영도초등학교,서울특별시 양천구 목동중앙로 70,37.5357584,126.8715056,22.2
초등학교,서울염창초등학교,서울특별시 강서구 양천로 646-28,37.552971,126.8680404,20.9
초등학교,서울염동초등학교,서울특별시 강서구 양천로73길 17,37.5522237,126.8722695,20.9
초등학교,서울염경초등학교,서울특별시 강서구 양천로69길 49,37.5548339,126.8712719,20.9
초등학교,서울양화초등학교,서울특별시 양천구 목동중앙북로16길 57,37.5436993,126.8746309,22.2
초등학교,서울양천초등학교,서울특별시 강서구 양천로 329,37.5700268,126.8395942,20.9
초등학교,서울양원초등학교,서울특별시 양천구 화곡로 16,37.5389017,126.8234692,22.2
초등학교,서울양목초등학교,서울특별시 양천구 목동로11길 30,37.5236893,126.8612281,22.2
초등학교,서울양명초등학교,서울특별시 양천구 중앙로 204,37.5156672,126.8562088,22.2
초등학교,서울양동초등학교,서울특별시 양천구 오목로23길 24,37.5260815,126.8512105,22.2
초등학교,서울양강초등학교,서울특별시 양천구 오목로 101,37.5238932,126.847479,22.2
초등학교,서울신정초등학교,서울특별시 강서구 곰달래로31가길 27,37.5327379,126.8525524,20.9
초등학교,서울신월초등학교,서울특별시 강서구 강서로31길 48,37.5400157,126.8391213,20.9
초등학교,서울신원초등학교,서울특별시 양천구 남부순환로58길 32,37.5294135,126.8298312,22.2
초등학교,서울신서초등학교,서울특별시 양천구 목동서로10길 35,37.5202506,126.862432,22.2
초등학교,서울신목초등학교,서울특별시 양천구 신목로5길 11-6,37.5169129,126.8728585,22.2
초등학교,서울신남초등학교,서울특별시 양천구 남부순환로83길,37.5166394,126.8435894,22.2
초등학교,서울신기초등학교,서울특별시 양천구 신정로 292,37.5111873,126.854175,22.2
초등학교,서울신곡초등학교,서울특별시 강서구 등촌로13자길 42-14,37.5387761,126.8557934,20.9
초등학교,서울신강초등학교,서울특별시 양천구 중앙로55길 72,37.525841,126.8414098,22.2
초등학교,서울수명초등학교,서울특별시 강서구 수명로1길 84,37.5526316,126.8238979,20.9
초등학교,서울송화초등학교,서울특별시 강서구 방화대로34길 2,37.570643,126.8207702,20.9
초등학교,서울송정초등학교,서울특별시 강서구 공항대로3길 18,37.5623851,126.8110415,20.9
초등학교,서울서정초등학교,서울특별시 양천구 목동로8길 19,37.5240406,126.8673425,22.2
초등학교,서울삼정초등학교,서울특별시 강서구 금낭화로 222,37.5800782,126.8103478,20.9
초등학교,서울백석초등학교,서울특별시 강서구 공항대로 491,37.5532508,126.8620369,20.9
초등학교,서울방화초등학교,서울특별시 강서구 양천로6길 92,37.5686192,126.8056935,20.9
초등학교,서울발산초등학교,서울특별시 강서구 강서로45길 113,37.54983319999999,126.8308118,20.9
초등학교,서울목원초등학교,서울특별시 양천구 목동중앙로 204,37.5429221,126.8823145,22.2
초등학교,서울목운초등학교,서울특별시 양천구 목동동로 235,37.5268422,126.8730282,22.2
초등학교,서울목동초등학교,서울특별시 양천구 목동동로12길 12,37.5224794,126.8720859,22.2
초등학교,서울등현초등학교,서울특별시 강서구 화곡로65길 124,37.5612854,126.8477708,20.9
초등학교,서울등촌초등학교,서울특별시 강서구 등촌로39길 71,37.5475357,126.8581999,20.9
초등학교,서울등원초등학교,서울특별시 강서구 화곡로65길 90,37.5604595,126.8499055,20.9
초등학교,서울등양초등학교,서울특별시 강서구 강서로56나길 140,37.56480020000001,126.8446603,20.9
초등학교,서울등서초등학교,서울특별시 강서구 화곡로58길 86,37.5517629,126.8549434,20.9
초등학교,서울등명초등학교,서울특별시 강서구 강서로56나길 34,37.56062379999999,126.8422905,20.9
초등학교,서울등마초등학교,서울특별시 강서구 등촌로35길 12,37.5419866,126.8617578,20.9
초등학교,서울내발산초등학교,서울특별시 강서구 강서로46길 23,37.5512822,126.8377987,20.9
초등학교,서울남명초등학교,서울특별시 양천구 중앙로23길 3,37.5147894,126.8540583,22.2
초등학교,서울공항초등학교,서울특별시 강서구 마곡서1로 68,37.5630186,126.8216307,20.9
초등학교,서울공진초등학교,서울특별시 강서구 마곡서로 33,37.5578329,126.8226825,20.9
초등학교,서울계남초등학교,서울특별시 양천구 목동동로2길 54,37.5099706,126.8601601,22.2
초등학교,서울경인초등학교,서울특별시 양천구 안양천로 1009,37.5327839,126.8863757,22.2
초등학교,서울개화초등학교,서울특별시 강서구 양천로 11,37.5726397,126.8049577,20.9
초등학교,서울강월초등학교,서울특별시 양천구 신월로 97,37.5160671,126.8339911,22.2
초등학교,서울강신초등학교,서울특별시 양천구 월정로 280,37.5426771,126.8294753,22.2
초등학교,서울강서초등학교,서울특별시 양천구 오목로 31,37.5222639,126.8405261,22.2
초등학교,서울갈산초등학교,서울특별시 양천구 목동로 31,37.5117158,126.870068,22.2
초등학교,서울가양초등학교,서울 강서구 허준로 186,37.5616907,126.8590379,20.9
초등학교,서울가곡초등학교,서울특별시 강서구 공항대로36길 74,37.5549821,126.8363442,20.9
초등학교,서울대학교사범대학부설초등학교,서울특별시 종로구 대학로 64,37.5773056,127.003633,18.4
초등학교,운현초등학교,서울특별시 종로구 삼일대로 460,37.5758212,126.9878739,18.4
초등학교,신광초등학교,서울특별시 용산구 청파로 263,37.5430189,126.9699741,18.5
초등학교,숭의초등학교,서울특별시 중구 소파로2길 10,37.5569016,126.9874009,20.6
초등학교,서울흥인초등학교,서울특별시 중구 청구로6길 11,37.560698,127.0144689,20.6
초등학교,서울후암초등학교,서울특별시 용산구 두텁바위로 140,37.5510434,126.9821476,18.5
초등학교,서울효제초등학교,서울특별시 종로구 대학로 12,37.5726433,127.0029501,18.4
초등학교,서울혜화초등학교,서울특별시 종로구 혜화로 32,37.5889493,126.9999836,18.4
초등학교,서울한남초등학교,서울특별시 용산구 한남대로 112,37.539031,127.0052547,18.5
초등학교,서울한강초등학교,서울특별시 용산구 한강대로14길 9,37.5252195,126.9650816,18.5
초등학교,서울충무초등학교,서울 중구 퇴계로50길 13,37.5620231,127.0018217,20.6
초등학교,서울청파초등학교,서울특별시 용산구 효창원로 228,37.5475869,126.9642369,18.5
초등학교,서울청운초등학교,서울특별시 종로구 자하문로 105,37.5857023,126.9693616,18.4
초등학교,서울청구초등학교,서울특별시 중구 다산로 170,37.5583958,127.0141694,20.6
초등학교,서울창신초등학교,서울특별시 종로구 지봉로 73,37.5761362,127.0144602,18.4
초등학교,서울재동초등학교,서울특별시 종로구 북촌로4길 7,37.5798618,126.9856013,18.4
초등학교,서울장충초등학교,서울특별시 중구 청구로17길 40,37.5594942,127.011181,20.6
초등학교,서울이태원초등학교,서울특별시 용산구 녹사평대로40길 19,37.5359019,126.9880062,18.5
초등학교,서울원효초등학교,서울특별시 용산구 효창원로13길 38,37.5361964,126.9518352,18.5
초등학교,서울용암초등학교,서울특별시 용산구 녹사평대로60길 39,37.5448883,126.9891571,18.5
초등학교,서울용산초등학교,서울 용산구 한강대로57길 33,37.5354671,126.9724293,18.5
초등학교,서울신용산초등학교,서울특별시 용산구 이촌로 255,37.5200115,126.9758982,18.5
초등학교,서울신당초등학교,서울특별시 중구 난계로 141,37.5638936,127.023744,20.6
초등학교,서울세검정초등학교,서울특별시 종로구 세검정로9길 1,37.6032389,126.9609644,18.4
초등학교,서울서빙고초등학교,서울특별시 용산구 서빙고로51길 14,37.5213559,126.9919285,18.5
초등학교,서울삼광초등학교,서울특별시 용산구 두텁바위로1나길 19,37.5472363,126.9766841,18.5
초등학교,서울봉래초등학교,서울특별시 중구 손기정로 73,37.5563153,126.9640004,20.6
초등학교,서울보광초등학교,서울특별시 용산구 우사단로 20,37.5324128,126.996496,18.5
초등학교,서울명신초등학교,서울특별시 종로구 낙산길 250,37.581588,127.0142054,18.4
초등학교,서울매동초등학교,서울특별시 종로구 사직로9길 19,37.5774226,126.9666768,18.4
초등학교,서울독립문초등학교,서울특별시 종로구 통일로12길 23,37.5741878,126.9602469,18.4
초등학교,서울덕수초등학교,서울특별시 중구 덕수궁길 140,37.5685461,126.9745495,20.6
초등학교,서울남정초등학교,서울특별시 용산구 원효로64길 17-10,37.53635750000001,126.9649784,18.5
초등학교,서울남산초등학교,서울특별시 중구 퇴계로22길 17,37.5599979,126.9866564,20.6
초등학교,서울금양초등학교,서울특별시 용산구 효창원로 137,37.5405866,126.9611863,18.5
초등학교,서울교동초등학교,서울특별시 종로구 삼일대로 446,37.5748296,126.9877469,18.4
초등학교,서울광희초등학교,서울특별시 중구 다산로 269,37.5674577,127.0150222,20.6
초등학교,상명대학교사범대학부속초등학교,서울특별시 종로구 홍지문2길 1,37.6008111,126.956353,18.4
초등학교,리라초등학교,서울특별시 중구 소파로2길 7,37.5578599,126.9879108,20.6
초등학교,동산초등학교,서울특별시 중구 매봉18길 109,37.5563823,127.0170729,20.6
초등학교,화랑초등학교,서울특별시 노원구 화랑로 621,37.6277725,127.0904878,20.6
초등학교,한신초등학교,서울특별시 도봉구 노해로49길 69,37.65297,127.0317983,20.3
초등학교,태강삼육초등학교,서울특별시 노원구 화랑로 815,37.6429012,127.1060303,20.6
초등학교,청원초등학교,서울특별시 노원구 한글비석로 506,37.6660014,127.0623156,20.6
초등학교,서울한천초등학교,서울특별시 노원구 마들로 45,37.6201878,127.0689363,20.6
초등학교,서울태릉초등학교,서울특별시 노원구 노원로1길 36,37.6225387,127.0850209,20.6
초등학교,서울태랑초등학교,서울특별시 노원구 화랑로51나길 31,37.626118,127.0907034,20.6
초등학교,서울초당초등학교,서울특별시 도봉구 해등로32길 11,37.6580929,127.0222932,20.3
초등학교,서울청계초등학교,서울특별시 노원구 공릉로 431,37.6446677,127.0662866,20.6
초등학교,서울창일초등학교,서울특별시 도봉구 노해로66길 84,37.6474588,127.0476003,20.3
초등학교,서울창원초등학교,서울특별시 도봉구 해등로 103,37.6523423,127.0406358,20.3
초등학교,서울창림초등학교,서울특별시 도봉구 덕릉로63길 46,37.6432485,127.0414348,20.3
초등학교,서울창동초등학교,서울특별시 도봉구 해등로16길 81,37.6551207,127.0447633,20.3
초등학교,서울창도초등학교,서울특별시 도봉구 방학로 32-28,37.6635875,127.0490195,20.3
초등학교,서울창경초등학교,서울특별시 도봉구 도봉로129길 54,37.65603979999999,127.035033,20.3
초등학교,서울중현초등학교,서울특별시 노원구 섬밭로 181,37.6320961,127.0665418,20.6
초등학교,서울중평초등학교,서울특별시 노원구 섬밭로 241,37.6373034,127.0641709,20.6
초등학교,서울중원초등학교,서울특별시 노원구 섬밭로 316,37.6436662,127.062781,20.6
초등학교,서울중계초등학교,서울특별시 노원구 한글비석로19길 39,37.6575094,127.0733006,20.6
초등학교,서울자운초등학교,서울특별시 도봉구 마들로13길 166,37.6577741,127.0466339,20.3
초등학교,서울을지초등학교,서울특별시 노원구 중계로 239,37.650622,127.0729107,20.6
초등학교,서울월천초등학교,서울특별시 도봉구 노해로70길 96,37.6478352,127.0519604,20.3
초등학교,서울월계초등학교,서울특별시 노원구 월계로45가길 10,37.6276476,127.0508093,20.6
초등학교,서울원광초등학교,서울특별시 노원구 덕릉로76길 18,37.6539982,127.0748971,20.6
초등학교,서울용원초등학교,서울특별시 노원구 섬밭로 144,37.62929219999999,127.068908,20.6
초등학교,서울용동초등학교,서울특별시 노원구 한글비석로1길 81-11,37.6415556,127.0694706,20.6
초등학교,서울온곡초등학교,서울특별시 노원구 한글비석로52길 59,37.6673966,127.0660012,20.6
초등학교,서울오봉초등학교,서울특별시 도봉구 시루봉로 285,37.6716461,127.0403614,20.3
초등학교,서울연촌초등학교,서울특별시 노원구 공릉로58길 36,37.6342351,127.0729923,20.6
초등학교,서울연지초등학교,서울특별시 노원구 월계로55길 48,37.6334872,127.059949,20.6
초등학교,서울쌍문초등학교,서울특별시 도봉구 우이천로 360,37.6486928,127.0244709,20.3
초등학교,서울신화초등학교,서울특별시 도봉구 우이천로 120,37.6324968,127.0412371,20.3
초등학교,서울신학초등학교,서울특별시 도봉구 방학로 247-21,37.6607824,127.0252853,20.3
초등학교,서울신창초등학교,서울특별시 도봉구 덕릉로60길 93,37.6362593,127.0421388,20.3
초등학교,서울신상계초등학교,서울특별시 노원구 상계로 267,37.6679336,127.075807,20.6
초등학교,서울신방학초등학교,서울특별시 도봉구 시루봉로 173,37.6657588,127.0294466,20.3
초등학교,서울신계초등학교,서울특별시 노원구 초안산로 29,37.6300141,127.0531359,20.6
초등학교,서울숭미초등학교,서울특별시 도봉구 노해로 179,37.65078949999999,127.0278271,20.3
초등학교,서울수암초등학교,서울특별시 노원구 중계로12길 9,37.6481307,127.0815553,20.6
초등학교,서울수락초등학교,서울특별시 노원구 동일로 1745,37.68400690000001,127.0545469,20.6
초등학교,서울선곡초등학교,서울특별시 노원구 광운로2길 1,37.6184276,127.0581667,20.6
초등학교,서울상천초등학교,서울특별시 노원구 덕릉로 443,37.6460078,127.0579021,20.6
초등학교,서울상월초등학교,서울특별시 노원구 동일로221길 27,37.6584826,127.0571666,20.6
초등학교,서울상원초등학교,서울특별시 노원구 한글비석로54길 119,37.6675992,127.0600929,20.6
초등학교,서울상수초등학교,서울특별시 노원구 동일로216길 66,37.6516221,127.0648872,20.6
초등학교,서울상곡초등학교,서울특별시 노원구 노원로38길 34,37.6623987,127.0624797,20.6
초등학교,서울상계초등학교,서울특별시 노원구 상계로9길 39,37.6591835,127.065985,20.6
초등학교,서울상경초등학교,서울특별시 노원구 수락산로 237,37.6703503,127.0516941,20.6
초등학교,서울불암초등학교,서울특별시 노원구 중계로 178,37.6511319,127.0805262,20.6
초등학교,서울백운초등학교,서울특별시 도봉구 삼양로146길 17,37.653036,127.0136408,20.3
초등학교,서울방학초등학교,서울특별시 도봉구 도당로9길 34,37.6639166,127.032101,20.3
초등학교,서울동일초등학교,서울특별시 노원구 한글비석로 566,37.6649689,127.0547222,20.6
초등학교,서울도봉초등학교,서울특별시 도봉구 도봉로173길 96,37.6793606,127.0383592,20.3
초등학교,서울덕암초등학교,서울특별시 노원구 덕릉로112길 68,37.6665607,127.081256,20.6
초등학교,서울당현초등학교,서울특별시 노원구 동일로213길 52,37.6486335,127.0583815,20.6
초등학교,서울누원초등학교,서울특별시 도봉구 마들로 859-44,37.6865304,127.0495373,20.3
초등학교,서울녹천초등학교,서울특별시 노원구 마들로3길 34,37.6286552,127.0634321,20.6
초등학교,서울노일초등학교,서울특별시 노원구 동일로 1625,37.6732795,127.0547887,20.6
초등학교,서울노원초등학교,서울특별시 노원구 동일로230나길 32,37.6729987,127.0583228,20.6
초등학교,서울공연초등학교,서울특별시 노원구 동일로192가길 16,37.6270289,127.0743858,20.6
초등학교,서울공릉초등학교,서울특별시 노원구 동일로173길 12,37.6190942,127.0743075,20.6
초등학교,서울계상초등학교,서울특별시 노원구 한글비석로41가길 24,37.6630072,127.0679325,20.6
초등학교,서울가인초등학교,서울특별시 도봉구 도봉로136다길 4,37.6598383,127.0432608,20.3
초등학교,상명초등학교,서울특별시 노원구 덕릉로 541,37.6484812,127.0675404,20.6
초등학교,동북초등학교,서울특별시 도봉구 시루봉로 53,37.6553087,127.0267571,20.3
초등학교,서울항동초등학교,서울특별시 구로구 연동로 178,37.4824917,126.8242653,20.4
초등학교,서울하늘숲초등학교,서울특별시 구로구 오리로 1106,37.4850481,126.8419564,20.4
초등학교,서울금나래초등학교,서울특별시 금천구 시흥대로79길 37,37.4581332,126.8962769,18.9
초등학교,서울천이초등학교,서울특별시 구로구 오류로 30,37.4897685,126.8406895,20.4
초등학교,서울천왕초등학교,서울특별시 구로구 천왕로1길 11,37.4814477,126.8370797,20.4
초등학교,서울탑동초등학교,서울특별시 금천구 탑골로 47-3,37.4526773,126.9144646,18.9
초등학교,서울정심초등학교,서울특별시 금천구 독산로78다길 89,37.4715317,126.9082847,18.9
초등학교,서울윤중초등학교,서울특별시 영등포구 여의나루로2길 14,37.5194933,126.9228233,20.8
초등학교,서울우신초등학교,서울특별시 영등포구 신길로 190,37.5094002,126.9118385,20.8
초등학교,서울온수초등학교,서울특별시 구로구 부일로 893,37.4938548,126.8260896,20.4
초등학교,서울오정초등학교,서울특별시 구로구 경인로2길 10,37.4896946,126.8263378,20.4
초등학교,서울오류초등학교,서울특별시 구로구 경인로19길 39,37.4985866,126.8420766,20.4
초등학교,서울오류남초등학교,서울특별시 구로구 서해안로24길 22,37.4894213,126.8385269,20.4
초등학교,서울영중초등학교,서울특별시 영등포구 양산로 185,37.523603,126.9038836,20.8
초등학교,서울영일초등학교,서울특별시 구로구 남부순환로105길 218,37.4853929,126.8838471,20.4
초등학교,서울영원초등학교,서울특별시 영등포구 도영로 22길 31,37.5105382,126.9022395,20.8
초등학교,서울영신초등학교,서울특별시 영등포구 도신로60길 23,37.5098084,126.9184286,20.8
초등학교,서울영서초등학교,서울특별시 구로구 도림로20길 57,37.4882669,126.8951118,20.4
초등학교,서울영문초등학교,서울특별시 영등포구 문래로 56,37.5196828,126.8876827,20.8
초등학교,서울영림초등학교,서울특별시 영등포구 시흥대로173길 14,37.4871601,126.9028714,20.8
초등학교,서울영등포초등학교,서울특별시 영등포구 경인로 756,37.5128239,126.8985316,20.8
초등학교,서울영동초등학교,서울특별시 영등포구 국회대로53길 20,37.5265582,126.9073056,20.8
초등학교,서울영남초등학교,서울특별시 금천구 문성로 62-15,37.4757357,126.9095497,18.9
초등학교,서울여의도초등학교,서울특별시 영등포구 여의대방로 439,37.5229009,126.9365032,20.8
초등학교,서울안천초등학교,서울특별시 금천구 한내로 69-16,37.4581877,126.8885152,18.9
초등학교,서울신흥초등학교,서울특별시 금천구 독산로36나길 21,37.4594345,126.9088506,18.9
초등학교,서울신영초등학교,서울특별시 영등포구 도신로4길 32,37.5004065,126.8959699,20.8
초등학교,서울신미림초등학교,서울특별시 구로구 신도림로 26,37.5067008,126.8795258,20.4
초등학교,서울신도림초등학교,서울특별시 구로구 신도림로19길 44,37.5123288,126.8829078,20.4
초등학교,서울신대림초등학교,서울특별시 영등포구 대림로8길 25,37.4921905,126.9059426,20.8
초등학교,서울신구로초등학교,서울특별시 구로구 가마산로27길 69,37.4993865,126.8893104,20.4
초등학교,서울시흥초등학교,서울특별시 금천구 독산로23길 26,37.4548042,126.9048667,18.9
초등학교,서울세곡초등학교,서울특별시 구로구 고척로33길 34,37.5047112,126.8491696,20.4
초등학교,서울선유초등학교,서울특별시 영등포구 선유로43가길 14,37.5326484,126.8926503,20.8
초등학교,서울백산초등학교,서울특별시 금천구 시흥대로38길 78,37.4470039,126.9050089,18.9
초등학교,서울미래초등학교,서울특별시 구로구 새말로 73,37.5050456,126.8880056,20.4
초등학교,서울문성초등학교,서울특별시 금천구 시흥대로 460,37.4745882,126.8993532,18.9
초등학교,서울문백초등학교,서울특별시 금천구 시흥대로47길 43-1,37.4470805,126.8993032,18.9
초등학교,서울문래초등학교,서울특별시 영등포구 문래로 104,37.518651,126.8933009,20.8
초등학교,서울문교초등학교,서울특별시 금천구 독산로54길 102,37.4664219,126.9087003,18.9
초등학교,서울매봉초등학교,서울특별시 구로구 고척로21길 55,37.5043728,126.8445548,20.4
초등학교,서울두산초등학교,서울특별시 금천구 범안로11길 3,37.4671638,126.8910112,18.9
초등학교,서울동구로초등학교,서울특별시 구로구 구로중앙로14길 43,37.4948835,126.8926192,20.4
초등학교,서울독산초등학교,서울특별시 금천구 시흥대로104길 31,37.4652405,126.9000609,18.9
초등학교,서울도신초등학교,서울특별시 영등포구 도림로53길 32-9,37.4987012,126.9008531,20.8
초등학교,서울도림초등학교,서울특별시 영등포구 가마산로65길 22,37.5082229,126.9073955,20.8
초등학교,서울덕의초등학교,서울특별시 구로구 고척로 213,37.5060893,126.8566773,20.4
초등학교,서울대영초등학교,서울특별시 영등포구 신길로23길 43,37.5024863,126.9058889,20.8
초등학교,서울대방초등학교,서울특별시 영등포구 여의대방로35길 14,37.5024692,126.9192814,20.8
초등학교,서울대동초등학교,서울특별시 영등포구 대림로21길 6,37.4933501,126.9001454,20.8
초등학교,서울대길초등학교,서울특별시 영등포구 대방천로 206,37.4981318,126.9137388,20.8
초등학교,서울당중초등학교,서울특별시 영등포구 선유로 131,37.5262496,126.8903407,20.8
초등학교,서울당서초등학교,서울특별시 영등포구 당산로 187,37.5316676,126.8994544,20.8
초등학교,서울당산초등학교,서울특별시 영등포구 선유로55길 32,37.5395305,126.896184,20.8
초등학교,서울금천초등학교,서울특별시 금천구 탑골로5길 60,37.4547981,126.9122575,18.9
초등학교,서울금산초등학교,서울특별시 금천구 시흥대로24길 57,37.4416478,126.908194,18.9
초등학교,서울금동초등학교,서울특별시 금천구 금하로30길 53,37.4475289,126.9164162,18.9
초등학교,서울구일초등학교,서울특별시 구로구 구일로 68,37.4927246,126.8730243,20.4
초등학교,서울구로초등학교,서울특별시 구로구 구로중앙로27나길 9,37.4968922,126.885956,20.4
초등학교,서울구로남초등학교,서울특별시 구로구 디지털로27길 76,37.4849103,126.890802,20.4
초등학교,서울고척초등학교,서울특별시 구로구 경서로 31,37.5007474,126.8572057,20.4
초등학교,서울고원초등학교,서울특별시 구로구 경인로46길 13,37.4974664,126.8657362,20.4
초등학교,서울고산초등학교,서울특별시 구로구 중앙로 6,37.4991292,126.8654428,20.4
초등학교,서울개웅초등학교,서울특별시 구로구 개봉로11길 98,37.4883826,126.8501628,20.4
초등학교,서울개봉초등학교,서울특별시 구로구 개봉로16길 30-11,37.4894288,126.8584501,20.4
초등학교,서울개명초등학교,서울특별시 구로구 개봉로1다길 16-9,37.482935,126.8506977,20.4
초등학교,서울가산초등학교,서울특별시 금천구 남부순환로 1304-11,37.4779694,126.8964435,18.9
초등학교,동광초등학교,서울특별시 금천구 탑골로10길 45,37.4512743,126.916348,18.9
초등학교,서울어울초등학교,서울특별시 은평구 통일로 650,37.6063438,126.9351259,20.9
초등학교,서울가재울초등학교,서울특별시 서대문구 모래내로15길 61,37.5736551,126.9184086,21.8
초등학교,서울은빛초등학교,서울특별시 은평구 진관3로 73-17,37.6407397,126.9206861,20.9
초등학교,서울하늘초등학교,서울특별시 마포구 월드컵북로 502-14,37.58546520000001,126.8807982,20.8
초등학교,서울수리초등학교,서울특별시 은평구 불광로14길 10-10,37.6202931,126.9341638,20.9
초등학교,홍익대학교사범대학부속초등학교,서울특별시 마포구 성미산로 51,37.5598163,126.9133449,20.8
초등학교,충암초등학교,서울특별시 은평구 가좌로5길 5,37.5849613,126.9214457,20.9
초등학교,추계초등학교,서울특별시 서대문구 북아현로11가길 7,37.5627129,126.9533273,21.8
초등학교,이화여자대학교사범대학부속초등학교,서울특별시 서대문구 성산로 512-39,37.5609487,126.9426523,21.8
초등학교,예일초등학교,서울특별시 은평구 연서로 117,37.6101582,126.9153115,20.9
초등학교,선일초등학교,서울특별시 은평구 갈현로29길 27,37.6197355,126.912473,20.9
초등학교,서울홍제초등학교,서울특별시 서대문구 홍은중앙로 13,37.5925972,126.9439061,21.8
초등학교,서울홍은초등학교,서울특별시 서대문구 세검정로 105,37.597357,126.9496883,21.8
초등학교,서울홍연초등학교,서울특별시 서대문구 백련사길 55,37.5817146,126.9310399,21.8
초등학교,서울한서초등학교,서울특별시 마포구 대흥로24바길 27,37.55350809999999,126.9495356,20.8
초등학교,서울창천초등학교,서울특별시 마포구 백범로1길 56,37.5547333,126.9394175,20.8
초등학교,서울창서초등학교,서울특별시 서대문구 연세로5나길 30-3,37.5576127,126.9339632,21.8
초등학교,서울진관초등학교,서울특별시 은평구 진관4로 78-16,37.645199,126.9293047,20.9
초등학교,서울증산초등학교,서울특별시 은평구 증산서길 61,37.5824301,126.9044908,20.9
초등학교,서울중동초등학교,서울특별시 마포구 월드컵북로 152,37.5666181,126.9113904,20.8
초등학교,서울인왕초등학교,서울특별시 서대문구 세무서길 33-9,37.5902441,126.9453276,21.8
초등학교,서울응암초등학교,서울특별시 은평구 가좌로6길 20,37.5879931,126.9212763,20.9
초등학교,서울은평초등학교,서울특별시 은평구 은평로 239,37.601791,126.9343984,20.9
초등학교,서울은진초등학교,서울특별시 은평구 진관1로 21-20,37.6330315,126.9211161,20.9
초등학교,서울은명초등학교,서울특별시 은평구 은평로4길 21-9,37.597629,126.9183842,20.9
초등학교,서울용강초등학교,서울특별시 마포구 백범로17길 9,37.54911329999999,126.9440541,20.8
초등학교,서울염리초등학교,서울특별시 마포구 토정로37길 37,37.5424349,126.9458653,20.8
초등학교,서울연희초등학교,서울특별시 서대문구 연희로 136,37.56920789999999,126.9338235,21.8
초등학교,서울연천초등학교,서울특별시 은평구 연서로34길 22,37.6208097,126.9293346,20.9
초등학교,서울연은초등학교,서울특별시 은평구 백련산로2길 35,37.5907251,126.9248081,20.9
초등학교,서울연신초등학교,서울특별시 은평구 연서로 347,37.6263103,126.9283771,20.9
초등학교,서울연광초등학교,서울특별시 은평구 연서로35길 37,37.6239685,126.9241114,20.9
초등학교,서울연가초등학교,서울특별시 서대문구 증가로12가길 49-50,37.5798466,126.9181248,21.8
초등학교,서울역촌초등학교,서울특별시 은평구 은평로3길 25,37.6016815,126.914373,20.9
초등학교,서울안산초등학교,서울특별시 서대문구 통일로 321,37.5793452,126.9515294,21.8
초등학교,서울아현초등학교,서울특별시 마포구 굴레방로 6,37.5554163,126.9561352,20.8
초등학교,서울신석초등학교,서울특별시 마포구 대흥로 33,37.5438625,126.9377264,20.8
초등학교,서울신사초등학교,서울특별시 은평구 가좌로 275-2,37.592728,126.9122874,20.9
초등학교,서울신북초등학교,서울특별시 마포구 월드컵북로38길 26,37.5709938,126.9047529,20.8
초등학교,서울신도초등학교,서울특별시 은평구 진관1로 77-23,37.6328578,126.9291221,20.9
초등학교,서울수색초등학교,서울특별시 은평구 수색로16길 21,37.58497029999999,126.8954572,20.9
초등학교,서울소의초등학교,서울특별시 마포구 마포대로24길 42,37.5522106,126.9608226,20.8
초등학교,서울성원초등학교,서울특별시 마포구 월드컵로36길 34,37.5670857,126.9048783,20.8
초등학교,서울성서초등학교,서울특별시 마포구 성미산로7길 24,37.5604635,126.9114021,20.8
초등학교,서울성산초등학교,서울특별시 마포구 양화로3길 94,37.5532843,126.9110812,20.8
초등학교,서울서신초등학교,서울특별시 은평구 은평터널로 150,37.5923977,126.9075339,20.9
초등학교,서울서교초등학교,서울특별시 마포구 와우산로23길 20-27,37.5547819,126.9250399,20.8
초등학교,서울서강초등학교,서울특별시 마포구 독막로 113,37.54824929999999,126.9267501,20.8
초등학교,서울상지초등학교,서울특별시 마포구 월드컵로42길 30,37.5796005,126.8822538,20.8
초등학교,서울상암초등학교,서울특별시 마포구 월드컵북로 353,37.5760868,126.8921932,20.8
초등학교,서울상신초등학교,서울특별시 은평구 가좌로 361,37.597446,126.9052496,20.9
초등학교,서울불광초등학교,서울특별시 은평구 불광로 51,37.6127859,126.9309581,20.9
초등학교,서울북한산초등학교,서울특별시 은평구 대서문길 42-3,37.652294,126.9523279,20.9
초등학교,서울북성초등학교,서울특별시 서대문구 북아현로1나길 22,37.5592385,126.9519867,21.8
초등학교,서울북가좌초등학교,서울특별시 서대문구 거북골로19길 20,37.5778615,126.9077309,21.8
초등학교,서울미동초등학교,서울특별시 서대문구 충정로 52,37.5631257,126.9661023,21.8
초등학교,서울망원초등학교,서울특별시 마포구 방울내로5길 28,37.5607029,126.9010613,20.8
초등학교,서울마포초등학교,서울특별시 마포구 도화2길 64,37.5385766,126.9490889,20.8
초등학교,서울동교초등학교,서울특별시 마포구 월드컵로25길 86,37.5582866,126.9026591,20.8
초등학교,서울대조초등학교,서울특별시 은평구 연서로18길 17,37.6128914,126.9195816,20.9
초등학교,서울대은초등학교,서울특별시 은평구 통일로69길 12-15,37.611844,126.9262037,20.9
초등학교,서울대신초등학교,서울특별시 서대문구 이화여대2길 27,37.5579493,126.9476992,21.8
초등학교,서울녹번초등학교,서울특별시 은평구 녹번로1길 1,37.604156,126.9262948,20.9
초등학교,서울금화초등학교,서울특별시 서대문구 통일로 165,37.5686444,126.9631731,21.8
초등학교,서울구현초등학교,서울특별시 은평구 갈현로15길 51,37.6092825,126.9058435,20.9
초등학교,서울구산초등학교,서울특별시 은평구 서오릉로15길 16,37.61215809999999,126.9093323,20.9
초등학교,서울공덕초등학교,서울특별시 마포구 만리재옛길 13,37.5457281,126.954095,20.8
초등학교,서울고은초등학교,서울특별시 서대문구 모래내로 441,37.5846504,126.9434987,21.8
초등학교,서울갈현초등학교,서울특별시 은평구 연서로29길 31,37.6192549,126.9167168,20.9
초등학교,명지초등학교,서울특별시 서대문구 명지2길 32-20,37.5833752,126.9284343,21.8
초등학교,경기초등학교,서울특별시 서대문구 경기대로9길 10,37.5651532,126.9628648,21.8
초등학교,서울양원숲초등학교,서울특별시 중랑구 양원역로 95,37.6040289,127.1072605,20.4
초등학교,서울새솔초등학교,서울특별시 중랑구 신내역로1길 164,37.6180463,127.111391,20.4
초등학교,서울삼육초등학교,서울특별시 동대문구 회기로10길 63,37.5891804,127.0478661,21.6
초등학교,은석초등학교,서울특별시 동대문구 장안벚꽃로 205,37.5778873,127.0753241,21.6
초등학교,서울휘봉초등학교,서울특별시 동대문구 장안벚꽃로 309,37.5860882,127.0701328,21.6
초등학교,서울휘경초등학교,서울특별시 동대문구 망우로6길 48,37.5857748,127.0581642,21.6
초등학교,서울홍파초등학교,서울특별시 동대문구 고산자로 518,37.58631190000001,127.0396423,21.6
초등학교,서울홍릉초등학교,서울특별시 동대문구 회기로 90,37.5909267,127.0471277,21.6
초등학교,서울청량초등학교,서울특별시 동대문구 회기로25길 31,37.5920728,127.0554806,21.6
초등학교,서울중흥초등학교,서울특별시 중랑구 봉화산로 82,37.6015734,127.0842306,20.4
초등학교,서울중화초등학교,서울특별시 중랑구 신내로7가길 22,37.6029917,127.0946298,20.4
초등학교,서울중목초등학교,서울특별시 중랑구 동일로 665,37.5900264,127.0794423,20.4
초등학교,서울중랑초등학교,서울특별시 중랑구 봉우재로6길 26,37.5891824,127.0757822,20.4
초등학교,서울중곡초등학교,서울특별시 중랑구 면목로23길 20,37.5743574,127.0836385,20.4
초등학교,서울종암초등학교,서울특별시 동대문구 무학로44길 25,37.5818988,127.0311867,21.6
초등학교,서울전동초등학교,서울특별시 동대문구 전농로16길 61,37.5789529,127.0613852,21.6
초등학교,서울전농초등학교,서울특별시 동대문구 사가정로 66,37.57448530000001,127.0543724,21.6
초등학교,서울전곡초등학교,서울특별시 동대문구 전농로 172,37.580487,127.0565035,21.6
초등학교,서울장평초등학교,서울특별시 동대문구 답십리로,37.574081,127.0587743,21.6
초등학교,서울이문초등학교,서울특별시 동대문구 신이문로 16,37.5891467,127.0550885,21.6
초등학교,서울원묵초등학교,서울특별시 중랑구 숙선옹주로 109,37.6177169,127.0860188,20.4
초등학교,서울용두초등학교,서울특별시 동대문구 천호대로13길 43,37.5759108,127.0289656,21.6
초등학교,서울안평초등학교,서울특별시 동대문구 장한로14길 61,37.5656926,127.0718822,21.6
초등학교,서울신현초등학교,서울특별시 중랑구 봉화산로 188,37.6056709,127.0936365,20.4
초등학교,서울신묵초등학교,서울특별시 중랑구 동일로149길 46,37.6071681,127.0755496,20.4
초등학교,서울신답초등학교,서울특별시 동대문구 천호대로 177,37.5730147,127.0433716,21.6
초등학교,서울신내초등학교,서울특별시 중랑구 용마산로125나길 22,37.6042363,127.0999667,20.4
초등학교,서울상봉초등학교,서울특별시 중랑구 동일로126가길 11,37.5980763,127.083759,20.4
초등학교,서울봉화초등학교,서울특별시 중랑구 신내로15길 110,37.613399,127.0921394,20.4
초등학교,서울배봉초등학교,서울특별시 동대문구 사가정로 193,37.5799291,127.0662852,21.6
초등학교,서울묵현초등학교,서울특별시 중랑구 동일로157길 75,37.6089797,127.0736424,20.4
초등학교,서울묵동초등학교,서울특별시 중랑구 동일로138길 27,37.6039693,127.081321,20.4
초등학교,서울면중초등학교,서울특별시 중랑구 용마산로70길 43,37.5821737,127.0969242,20.4
초등학교,서울면일초등학교,서울특별시 중랑구 용마산로100길 13,37.5919801,127.0993753,20.4
초등학교,서울면북초등학교,서울특별시 중랑구 용마공원로5길 32,37.5942577,127.1034907,20.4
초등학교,서울면목초등학교,서울특별시 중랑구 면목로 434,37.5912359,127.0877097,20.4
초등학교,서울면동초등학교,서울특별시 중랑구 면목로57길 32,37.5852697,127.0866741,20.4
초등학교,서울면남초등학교,서울특별시 중랑구 면목로30나길 38,37.5772297,127.0881007,20.4
초등학교,서울망우초등학교,서울특별시 중랑구 망우로72길 49,37.5983289,127.1034359,20.4
초등학교,서울동원초등학교,서울특별시 중랑구 송림길 114,37.6049029,127.1049361,20.4
초등학교,서울동답초등학교,서울특별시 동대문구 답십리로60길 12,37.5719683,127.0645838,21.6
초등학교,서울답십리초등학교,서울특별시 동대문구 전농로3길 23,37.5688678,127.0556519,21.6
초등학교,서울군자초등학교,서울특별시 동대문구 한천로6길 21,37.5642058,127.0613158,21.6
초등학교,금성초등학교,서울특별시 중랑구 신내로21길 55,37.6150762,127.0896428,20.4
초등학교,경희초등학교,서울특별시 동대문구 경희대로 26,37.5967122,127.0513948,21.6
